{
"type": "FeatureCollection",
"crs": { "type": "name", "properties": { "name": "urn:ogc:def:crs:OGC:1.3:CRS84" } },
"features": [
{ "type": "Feature", "properties": { "id_barrio": 32, "nombre": "Manga y Toledo Chico", "codigo": "MT" }, "geometry": { "type": "Point", "coordinates": [ -56.1859925,-34.7644335 ]}},
{ "type": "Feature", "properties": { "id_barrio": 58, "nombre": "Colon Sureste y Abayuba", "codigo": "CY" }, "geometry": { "type": "Point", "coordinates": [ -56.2248196,-34.7781884 ]}},
{ "type": "Feature", "properties": { "id_barrio": 61, "nombre": "Villa Garcia y Manga Rur.", "codigo": "VG" }, "geometry": { "type": "Point", "coordinates": [ -56.0882308,-34.7772547 ]}},
{ "type": "Feature", "properties": { "id_barrio": 16, "nombre": "Banados de Carrasco", "codigo": "BC" }, "geometry": { "type": "Point", "coordinates": [ -56.1204446,-34.8324871 ]}},
{ "type": "Feature", "properties": { "id_barrio": 62, "nombre": "Manga", "codigo": "MG" }, "geometry": { "type": "Point", "coordinates": [ -56.1859925,-34.777489 ]}},
{ "type": "Feature", "properties": { "id_barrio": 34, "nombre": "Penarol y Lavalleja", "codigo": "PJ" }, "geometry": { "type": "Point", "coordinates": [ -56.2359995,-34.8247258 ]}},
{ "type": "Feature", "properties": { "id_barrio": 20, "nombre": "Pta. Rieles y Bella Italia", "codigo": "PT" }, "geometry": { "type": "Point", "coordinates": [ -56.1155679,-34.8223309 ]}},
{ "type": "Feature", "properties": { "id_barrio": 30, "nombre": "Casavalle", "codigo": "CV" }, "geometry": { "type": "Point", "coordinates": [ -56.2047316,-34.8148777 ]}},
{ "type": "Feature", "properties": { "id_barrio": 31, "nombre": "Piedras Blancas", "codigo": "PI" }, "geometry": { "type": "Point", "coordinates": [ -56.1488878,-34.8246513 ]}},
{ "type": "Feature", "properties": { "id_barrio": 52, "nombre": "Sayago", "codigo": "SA" }, "geometry": { "type": "Point", "coordinates": [ -56.229787,-34.8317676 ]}},
{ "type": "Feature", "properties": { "id_barrio": 21, "nombre": "Jardines del Hipodromo", "codigo": "JH" }, "geometry": { "type": "Point", "coordinates": [ -56.1447985,-34.8393454]}},
{ "type": "Feature", "properties": { "id_barrio": 36, "nombre": "Casabo y Pajas Blancas", "codigo": "CA" }, "geometry": { "type": "Point", "coordinates": [ -56.2807381,-34.8855257 ]}},
{ "type": "Feature", "properties": { "id_barrio": 28, "nombre": "Las Acacias", "codigo": "LA" }, "geometry": { "type": "Point", "coordinates": [ -56.1639293,-34.8417497 ]}},
{ "type": "Feature", "properties": { "id_barrio": 37, "nombre": "La Paloma y Tomkinson", "codigo": "LP" }, "geometry": { "type": "Point", "coordinates": [ -56.2705028,-34.8615043 ]}},
{ "type": "Feature", "properties": { "id_barrio": 54, "nombre": "Belvedere", "codigo": "BE" }, "geometry": { "type": "Point", "coordinates": [ -56.2334347,-34.8486558 ]}},
{ "type": "Feature", "properties": { "id_barrio": 33, "nombre": "Paso de las Duranas", "codigo": "PD" }, "geometry": { "type": "Point", "coordinates": [ -56.2122228,-34.8459827 ]}},
{ "type": "Feature", "properties": { "id_barrio": 22, "nombre": "Ituzaingo", "codigo": "IT" }, "geometry": { "type": "Point", "coordinates": [ -56.1533755,-34.8494321]}},
{ "type": "Feature", "properties": { "id_barrio": 18, "nombre": "Flor de Maronas", "codigo": "FL" }, "geometry": { "type": "Point", "coordinates": [ -56.134142,-34.8515987 ]}},
{ "type": "Feature", "properties": { "id_barrio": 29, "nombre": "Aires Puros", "codigo": "AI" }, "geometry": { "type": "Point", "coordinates": [ -56.1968065,-34.8526917 ]}},
{ "type": "Feature", "properties": { "id_barrio": 26, "nombre": "Castro y P. Castellanos", "codigo": "CC" }, "geometry": { "type": "Point", "coordinates": [ -56.1671412,-34.8567583 ]}},
{ "type": "Feature", "properties": { "id_barrio": 56, "nombre": "Tres Ombues y Victoria", "codigo": "TO" }, "geometry": { "type": "Point", "coordinates": [ -56.2564697,-34.8595001 ]}}, 
{ "type": "Feature", "properties": { "id_barrio": 27, "nombre": "Cerrito", "codigo": "CT" }, "geometry": { "type": "Point", "coordinates": [ -56.1877836,-34.8492301 ]}},
{ "type": "Feature", "properties": { "id_barrio": 39, "nombre": "Prado y Nueva Savona", "codigo": "PN" }, "geometry": { "type": "Point", "coordinates": [ -56.2236125,-34.8609001 ]}},
{ "type": "Feature", "properties": { "id_barrio": 24, "nombre": "Villa Espanola", "codigo": "VE" }, "geometry": { "type": "Point", "coordinates": [ -56.1610259,-34.8627091 ]}},
{ "type": "Feature", "properties": { "id_barrio": 17, "nombre": "Maronas y Parque Guarani", "codigo": "MO" }, "geometry": { "type": "Point", "coordinates": [ -56.1316139,-34.8638108 ]}}, 
{ "type": "Feature", "properties": { "id_barrio": 51, "nombre": "Brazo Oriental", "codigo": "BO" }, "geometry": { "type": "Point", "coordinates": [ -56.1871827,-34.8627545 ]}},
{ "type": "Feature", "properties": { "id_barrio": 19, "nombre": "Las Canteras", "codigo": "LS" }, "geometry": { "type": "Point", "coordinates": [ -56.1133845,-34.864141 ]}},
{ "type": "Feature", "properties": { "id_barrio": 38, "nombre": "La Teja", "codigo": "LT" }, "geometry": { "type": "Point", "coordinates": [ -56.2482472,-34.8672979 ]}},
{ "type": "Feature", "properties": { "id_barrio": 25, "nombre": "Mercado Modelo y Bolivar", "codigo": "MM" }, "geometry": { "type": "Point", "coordinates": [ -56.1790557,-34.8682023 ]}}, 
{ "type": "Feature", "properties": { "id_barrio": 43, "nombre": "Atahualpa", "codigo": "AT" }, "geometry": { "type": "Point", "coordinates": [ -56.1985661,-34.8654615 ]}},
{ "type": "Feature", "properties": { "id_barrio": 40, "nombre": "Capurro y Bella Vista", "codigo": "CP" }, "geometry": { "type": "Point", "coordinates": [ -56.2226308,-34.8695858 ]}},
{ "type": "Feature", "properties": { "id_barrio": 23, "nombre": "Union", "codigo": "UN" }, "geometry": { "type": "Point", "coordinates": [ -56.1472055,-34.8764969 ]}},
{ "type": "Feature", "properties": { "id_barrio": 15, "nombre": "Carrasco Norte", "codigo": "CN" }, "geometry": { "type": "Point", "coordinates": [ -56.0840894,-34.8747559 ]}},
{ "type": "Feature", "properties": { "id_barrio": 44, "nombre": "Jacinto Vera", "codigo": "JV" }, "geometry": { "type": "Point", "coordinates": [ -56.1806542,-34.8763192 ]}},
{ "type": "Feature", "properties": { "id_barrio": 46, "nombre": "Larranaga", "codigo": "LG" }, "geometry": { "type": "Point", "coordinates": [ -56.1688165,-34.8796339 ]}},
{ "type": "Feature", "properties": { "id_barrio": 45, "nombre": "La Figurita", "codigo": "FI" }, "geometry": { "type": "Point", "coordinates": [ -56.1857622,-34.8764334 ]}},
{ "type": "Feature", "properties": { "id_barrio": 12, "nombre": "Malvin Norte", "codigo": "MN" }, "geometry": { "type": "Point", "coordinates": [ -56.1285607,-34.8777879 ]}},
{ "type": "Feature", "properties": { "id_barrio": 14, "nombre": "Carrasco", "codigo": "CR" }, "geometry": { "type": "Point", "coordinates": [ -56.0695733,-34.8835614 ]}},
{ "type": "Feature", "properties": { "id_barrio": 42, "nombre": "Reducto", "codigo": "RE" }, "geometry": { "type": "Point", "coordinates": [ -56.195605,-34.8781236 ]}},
{ "type": "Feature", "properties": { "id_barrio": 35, "nombre": "Cerro", "codigo": "CO" }, "geometry": { "type": "Point", "coordinates": [ -56.2717797,-34.8839969 ]}},
{ "type": "Feature", "properties": { "id_barrio": 13, "nombre": "Punta Gorda", "codigo": "PG" }, "geometry": { "type": "Point", "coordinates": [ -56.0962668,-34.8875034 ]}},
{ "type": "Feature", "properties": { "id_barrio": 48, "nombre": "Villa Munoz y Retiro", "codigo": "VM" }, "geometry": { "type": "Point", "coordinates": [ -56.1874992,-34.8879716 ]}}, 
{ "type": "Feature", "properties": { "id_barrio": 49, "nombre": "La Comercial", "codigo": "LC" }, "geometry": { "type": "Point", "coordinates": [ -56.1778486,-34.8871732 ]}},
{ "type": "Feature", "properties": { "id_barrio":  9, "nombre": "Buceo", "codigo": "BU" }, "geometry": { "type": "Point", "coordinates": [ -56.1471212,-34.8970682 ]}},
{ "type": "Feature", "properties": { "id_barrio": 11, "nombre": "Malvin", "codigo": "MA" }, "geometry": { "type": "Point", "coordinates": [ -56.114232,-34.8907661 ]}},
{ "type": "Feature", "properties": { "id_barrio": 41, "nombre": "Aguada", "codigo": "AG" }, "geometry": { "type": "Point", "coordinates": [ -56.1966421,-34.8900544 ]}},
{ "type": "Feature", "properties": { "id_barrio": 47, "nombre": "La Blanqueada", "codigo": "LB" }, "geometry": { "type": "Point", "coordinates": [ -56.1703492,-34.8806832 ]}},
{ "type": "Feature", "properties": { "id_barrio": 50, "nombre": "Tres Cruces", "codigo": "TC" }, "geometry": { "type": "Point", "coordinates": [ -56.1739111,-34.8942114 ]}},
{ "type": "Feature", "properties": { "id_barrio": 10, "nombre": "Pque. Batlle y V. Dolores", "codigo": "PB" }, "geometry": { "type": "Point", "coordinates": [ -56.1574818,-34.8948847 ]}},
{ "type": "Feature", "properties": { "id_barrio": 4, "nombre": "Cordon", "codigo": "CD" }, "geometry": { "type": "Point", "coordinates": [ -56.1806489, -34.9015327]}},
{ "type": "Feature", "properties": { "id_barrio": 2, "nombre": "Centro", "codigo": "CE" }, "geometry": { "type": "Point", "coordinates": [ -56.197949,-34.9041639 ]}},
{ "type": "Feature", "properties": { "id_barrio": 1, "nombre": "Ciudad Vieja", "codigo": "CJ" }, "geometry": { "type": "Point", "coordinates": [ -56.2120628,-34.9066891 ]}},
{ "type": "Feature", "properties": { "id_barrio": 8, "nombre": "Pocitos", "codigo": "PO" }, "geometry": { "type": "Point", "coordinates": [ -56.1526443, -34.9091214 ]}},
{ "type": "Feature", "properties": { "id_barrio": 5, "nombre": "Palermo", "codigo": "PL" }, "geometry": { "type": "Point", "coordinates": [ -56.1838953,-34.911713 ]}},
{ "type": "Feature", "properties": { "id_barrio": 6, "nombre": "Parque Rodo", "codigo": "PR" }, "geometry": { "type": "Point", "coordinates": [ -56.1692118, -34.9113386 ]}},
{ "type": "Feature", "properties": { "id_barrio": 3, "nombre": "Barrio Sur", "codigo": "SU" }, "geometry": { "type": "Point", "coordinates": [ -56.1961762,-34.9120914 ]}},
{ "type": "Feature", "properties": { "id_barrio": 7, "nombre": "Punta Carretas", "codigo": "PC" }, "geometry": { "type": "Point", "coordinates": [ -56.1582821, -34.9205527 ]}},
{ "type": "Feature", "properties": { "id_barrio": 59, "nombre": "Colon Centro y Noroeste", "codigo": "CS" }, "geometry": { "type": "Point", "coordinates": [ -56.233154,-34.7964482 ]}},
{ "type": "Feature", "properties": { "id_barrio": 53, "nombre": "Conciliacion", "codigo": "CI" }, "geometry": { "type": "Point", "coordinates": [ -56.2389708,-34.8235183 ]}},
{ "type": "Feature", "properties": { "id_barrio": 55, "nombre": "Nuevo Paris", "codigo": "NP" }, "geometry": { "type": "Point", "coordinates": [ -56.2613437,-34.8398564 ]}},
{ "type": "Feature", "properties": { "id_barrio": 60, "nombre": "Lezica y Melilla", "codigo": "LZ" }, "geometry": { "type": "Point", "coordinates": [ -56.2724448,-34.7932558 ]}},
{ "type": "Feature", "properties": { "id_barrio": 57, "nombre": "Paso de la Arena", "codigo": "PA" }, "geometry": { "type": "Point", "coordinates": [ -56.4101572,-34.8255922 ]}}
]
}
